{"13055": {"lat": 43.2803, "lng": 5.3806, "population": 886040, "nom": "Marseille"}, "06088": {"lat": 43.7032, "lng": 7.2528, "population": 357737, "nom": "Nice"}, "04112": {"lat": 43.8293, "lng": 5.7896, "population": 22718, "nom": "Manosque"}, "13054": {"lat": 43.4218, "lng": 5.2178, "population": 33692, "nom": "Marignane"}, "83050": {"lat": 43.5346, "lng": 6.4651, "population": 40826, "nom": "Draguignan"}, "84007": {"lat": 43.9416, "lng": 4.8333, "population": 92188, "nom": "Avignon"}, "06083": {"lat": 43.7961, "lng": 7.498, "population": 30604, "nom": "Menton"}, "06152": {"lat": 43.6267, "lng": 7.0291, "population": 11939, "nom": "Valbonne"}, "83137": {"lat": 43.1364, "lng": 5.9334, "population": 179116, "nom": "Toulon"}, "13005": {"lat": 43.2904, "lng": 5.5643, "population": 47529, "nom": "Aubagne"}, "04070": {"lat": 44.0954, "lng": 6.2495, "population": 17979, "nom": "Digne-les-Bains"}, "83086": {"lat": 43.468, "lng": 6.5844, "population": 10118, "nom": "Le Muy"}, "06085": {"lat": 43.5931, "lng": 7.0046, "population": 19782, "nom": "Mougins"}, "13028": {"lat": 43.1882, "lng": 5.6175, "population": 38477, "nom": "La Ciotat"}, "13001": {"lat": 43.536, "lng": 5.3879, "population": 149695, "nom": "Aix-en-Provence"}, "05061": {"lat": 44.5797, "lng": 6.0616, "population": 41293, "nom": "Gap"}, "06069": {"lat": 43.656, "lng": 6.937, "population": 50970, "nom": "Grasse"}, "06071": {"lat": 44.1007, "lng": 6.8673, "population": 587, "nom": "Guillaumes"}, "05065": {"lat": 44.6596, "lng": 6.6983, "population": 2295, "nom": "Guillestre"}, "83062": {"lat": 43.129, "lng": 6.0162, "population": 26476, "nom": "La Garde"}, "04143": {"lat": 43.9116, "lng": 5.9232, "population": 6155, "nom": "Oraison"}, "13103": {"lat": 43.643, "lng": 5.049, "population": 44194, "nom": "Salon-de-Provence"}, "13099": {"lat": 43.6869, "lng": 5.748, "population": 885, "nom": "Saint-Paul-lès-Durance"}, "83144": {"lat": 43.1484, "lng": 5.9893, "population": 23719, "nom": "La Valette-du-Var"}, "13081": {"lat": 43.4995, "lng": 5.233, "population": 12576, "nom": "Rognac"}, "84129": {"lat": 44.016, "lng": 4.8555, "population": 19006, "nom": "Sorgues"}, "06149": {"lat": 43.7415, "lng": 7.3413, "population": 10602, "nom": "La Trinité"}, "13104": {"lat": 43.3469, "lng": 5.1158, "population": 7574, "nom": "Sausset-les-Pins"}, "13072": {"lat": 43.4375, "lng": 5.6204, "population": 3739, "nom": "Peynier"}, "83023": {"lat": 43.3878, "lng": 6.0759, "population": 17850, "nom": "Brignoles"}, "13043": {"lat": 43.3873, "lng": 5.2334, "population": 10343, "nom": "Gignac-la-Nerthe"}, "05046": {"lat": 44.5806, "lng": 6.475, "population": 6412, "nom": "Embrun"}, "84031": {"lat": 44.0629, "lng": 5.0584, "population": 31619, "nom": "Carpentras"}, "13106": {"lat": 43.3931, "lng": 5.3828, "population": 11995, "nom": "Septèmes-les-Vallons"}, "84017": {"lat": 44.1337, "lng": 5.2342, "population": 3106, "nom": "Bédoin"}, "83126": {"lat": 43.0837, "lng": 5.8789, "population": 63732, "nom": "La Seyne-sur-Mer"}, "06137": {"lat": 43.652, "lng": 6.8573, "population": 1241, "nom": "Spéracèdes"}, "83067": {"lat": 43.3149, "lng": 6.2978, "population": 4496, "nom": "Gonfaron"}, "13108": {"lat": 43.7972, "lng": 4.6852, "population": 15396, "nom": "Tarascon"}, "04209": {"lat": 44.1993, "lng": 5.9276, "population": 7850, "nom": "Sisteron"}, "83016": {"lat": 43.205, "lng": 5.8239, "population": 10219, "nom": "Le Beausset"}, "83123": {"lat": 43.1374, "lng": 5.7951, "population": 18538, "nom": "Sanary-sur-Mer"}, "13100": {"lat": 43.7815, "lng": 4.8455, "population": 9599, "nom": "Saint-Rémy-de-Provence"}, "83098": {"lat": 43.0984, "lng": 6.0214, "population": 10933, "nom": "Le Pradet"}, "83090": {"lat": 43.1385, "lng": 5.8515, "population": 14568, "nom": "Ollioules"}, "05006": {"lat": 44.7835, "lng": 6.4716, "population": 2288, "nom": "L'Argentière-la-Bessée"}, "06084": {"lat": 43.6192, "lng": 6.9677, "population": 11015, "nom": "Mouans-Sartoux"}, "04203": {"lat": 44.3713, "lng": 6.299, "population": 443, "nom": "Selonnet"}, "05039": {"lat": 44.739, "lng": 6.0311, "population": 740, "nom": "Aubessagne"}, "84019": {"lat": 44.2885, "lng": 4.751, "population": 14024, "nom": "Bollène"}, "83027": {"lat": 43.2026, "lng": 5.7231, "population": 5739, "nom": "La Cadière-d'Azur"}, "84089": {"lat": 43.6931, "lng": 5.5345, "population": 19548, "nom": "Pertuis"}, "84069": {"lat": 44.1804, "lng": 5.1559, "population": 2758, "nom": "Malaucène"}, "06155": {"lat": 43.5787, "lng": 7.0604, "population": 29259, "nom": "Vallauris"}, "84138": {"lat": 44.379, "lng": 4.9973, "population": 9224, "nom": "Valréas"}, "84035": {"lat": 43.8485, "lng": 5.0333, "population": 25636, "nom": "Cavaillon"}, "05017": {"lat": 44.5817, "lng": 6.2151, "population": 2628, "nom": "La Bâtie-Neuve"}, "13042": {"lat": 43.2969, "lng": 5.6518, "population": 6579, "nom": "Gémenos"}, "13102": {"lat": 43.4121, "lng": 5.2508, "population": 6730, "nom": "Saint-Victoret"}, "04237": {"lat": 44.2762, "lng": 6.4153, "population": 132, "nom": "Le Vernet"}, "84003": {"lat": 43.8815, "lng": 5.3814, "population": 10143, "nom": "Apt"}, "06019": {"lat": 43.7938, "lng": 7.357, "population": 1668, "nom": "Blausasc"}, "05177": {"lat": 44.5907, "lng": 6.7211, "population": 588, "nom": "Vars"}, "06123": {"lat": 43.6865, "lng": 7.1822, "population": 32172, "nom": "Saint-Laurent-du-Var"}, "13047": {"lat": 43.5455, "lng": 4.9477, "population": 44292, "nom": "Istres"}, "05176": {"lat": 44.4921, "lng": 6.1354, "population": 289, "nom": "Valserres"}, "83112": {"lat": 43.17, "lng": 5.7055, "population": 11658, "nom": "Saint-Cyr-sur-Mer"}, "83138": {"lat": 43.609, "lng": 6.7252, "population": 2972, "nom": "Tourrettes"}, "13092": {"lat": 43.5414, "lng": 5.072, "population": 8676, "nom": "Saint-Chamas"}, "13004": {"lat": 43.5441, "lng": 4.6513, "population": 51811, "nom": "Arles"}, "83130": {"lat": 43.1895, "lng": 6.0625, "population": 12521, "nom": "Solliès-Pont"}, "84014": {"lat": 43.7372, "lng": 5.6978, "population": 1130, "nom": "Beaumont-de-Pertuis"}, "83012": {"lat": 43.5484, "lng": 5.973, "population": 2984, "nom": "Barjols"}, "83049": {"lat": 43.2429, "lng": 6.0654, "population": 13271, "nom": "Cuers"}, "83115": {"lat": 43.3584, "lng": 6.6139, "population": 14118, "nom": "Sainte-Maxime"}, "04102": {"lat": 44.4255, "lng": 6.4052, "population": 229, "nom": "Le Lauzet-Ubaye"}, "13034": {"lat": 43.7638, "lng": 4.9554, "population": 1773, "nom": "Eygalières"}, "83009": {"lat": 43.147, "lng": 5.7488, "population": 8267, "nom": "Bandol"}, "05170": {"lat": 44.4599, "lng": 6.0485, "population": 2292, "nom": "Tallard"}, "06161": {"lat": 43.647, "lng": 7.0984, "population": 17548, "nom": "Villeneuve-Loubet"}, "05023": {"lat": 44.8995, "lng": 6.6536, "population": 11411, "nom": "Briançon"}, "83152": {"lat": 43.1664, "lng": 6.4744, "population": 639, "nom": "Rayol-Canadel-sur-Mer"}, "04049": {"lat": 44.0801, "lng": 5.9942, "population": 5107, "nom": "Château-Arnoux-Saint-Auban"}, "84137": {"lat": 44.2395, "lng": 5.0586, "population": 6058, "nom": "Vaison-la-Romaine"}, "05036": {"lat": 44.6424, "lng": 6.4834, "population": 1234, "nom": "Châteauroux-les-Alpes"}, "84043": {"lat": 43.9959, "lng": 4.9347, "population": 8913, "nom": "Entraigues-sur-la-Sorgue"}, "05179": {"lat": 44.5599, "lng": 5.8227, "population": 3214, "nom": "Veynes"}, "84029": {"lat": 44.1551, "lng": 4.8911, "population": 4533, "nom": "Camaret-sur-Aigues"}, "84099": {"lat": 43.8429, "lng": 5.1066, "population": 4816, "nom": "Robion"}, "84012": {"lat": 44.1224, "lng": 5.0279, "population": 2442, "nom": "Beaumes-de-Venise"}, "13117": {"lat": 43.4509, "lng": 5.2656, "population": 36758, "nom": "Vitrolles"}, "04207": {"lat": 44.3231, "lng": 5.9648, "population": 101, "nom": "Sigoyer"}, "04126": {"lat": 44.4004, "lng": 6.3428, "population": 394, "nom": "Montclar"}, "83093": {"lat": 43.3336, "lng": 5.7472, "population": 2527, "nom": "Plan-d'Aups-Sainte-Baume"}, "13049": {"lat": 43.7073, "lng": 5.0898, "population": 2097, "nom": "Lamanon"}, "05132": {"lat": 44.692, "lng": 6.0988, "population": 2086, "nom": "Saint-Bonnet-en-Champsaur"}, "83092": {"lat": 43.2997, "lng": 6.2625, "population": 4838, "nom": "Pignans"}, "83148": {"lat": 43.4071, "lng": 6.4599, "population": 12608, "nom": "Vidauban"}, "13116": {"lat": 43.8377, "lng": 4.9192, "population": 772, "nom": "Verquières"}, "05184": {"lat": 44.4296, "lng": 5.9485, "population": 221, "nom": "Vitrolles"}, "83063": {"lat": 43.3251, "lng": 6.4603, "population": 1862, "nom": "La Garde-Freinet"}, "04245": {"lat": 43.8677, "lng": 5.8252, "population": 3243, "nom": "Volx"}, "06074": {"lat": 43.9787, "lng": 7.3121, "population": 1198, "nom": "Lantosque"}, "84076": {"lat": 43.7035, "lng": 5.6482, "population": 1450, "nom": "Mirabeau"}, "06095": {"lat": 43.6289, "lng": 6.8807, "population": 8514, "nom": "Peymeinade"}, "83045": {"lat": 43.4884, "lng": 6.0543, "population": 886, "nom": "Correns"}, "06029": {"lat": 43.5454, "lng": 7.0152, "population": 74350, "nom": "Cannes"}, "84002": {"lat": 43.7338, "lng": 5.4682, "population": 1064, "nom": "Ansouis"}, "04222": {"lat": 44.3934, "lng": 6.1596, "population": 345, "nom": "Turriers"}, "04135": {"lat": 43.837, "lng": 6.2289, "population": 683, "nom": "Moustiers-Sainte-Marie"}, "13110": {"lat": 43.4452, "lng": 5.7137, "population": 10946, "nom": "Trets"}, "05119": {"lat": 44.6202, "lng": 6.6242, "population": 664, "nom": "Risoul"}, "04111": {"lat": 43.9426, "lng": 5.7419, "population": 1410, "nom": "Mane"}, "83019": {"lat": 43.1575, "lng": 6.3615, "population": 8545, "nom": "Bormes-les-Mimosas"}, "84088": {"lat": 43.9966, "lng": 5.0289, "population": 10504, "nom": "Pernes-les-Fontaines"}, "84148": {"lat": 44.0658, "lng": 5.2572, "population": 1306, "nom": "Villes-sur-Auzon"}, "83118": {"lat": 43.4582, "lng": 6.8483, "population": 37113, "nom": "Saint-Raphaël"}, "04006": {"lat": 44.269, "lng": 6.6304, "population": 812, "nom": "Allos"}, "05040": {"lat": 44.5473, "lng": 6.287, "population": 3146, "nom": "Chorges"}, "04019": {"lat": 44.3751, "lng": 6.6463, "population": 2518, "nom": "Barcelonnette"}, "84047": {"lat": 43.8939, "lng": 5.3435, "population": 3035, "nom": "Gargas"}, "04173": {"lat": 43.9711, "lng": 6.5043, "population": 1029, "nom": "Saint-André-les-Alpes"}, "04149": {"lat": 44.0351, "lng": 5.9306, "population": 2798, "nom": "Peyruis"}, "13098": {"lat": 43.4565, "lng": 5.0152, "population": 6175, "nom": "Saint-Mitre-les-Remparts"}, "13019": {"lat": 43.453, "lng": 5.3467, "population": 10240, "nom": "Cabriès"}, "84080": {"lat": 44.033, "lng": 4.9862, "population": 13301, "nom": "Monteux"}, "13063": {"lat": 43.5841, "lng": 5.0148, "population": 26203, "nom": "Miramas"}, "04088": {"lat": 43.9582, "lng": 5.7842, "population": 5222, "nom": "Forcalquier"}, "84124": {"lat": 43.9334, "lng": 5.1201, "population": 886, "nom": "Saumane-de-Vaucluse"}, "83124": {"lat": 43.6326, "lng": 6.6024, "population": 2941, "nom": "Seillans"}, "06004": {"lat": 43.5823, "lng": 7.1048, "population": 77637, "nom": "Antibes"}, "05108": {"lat": 44.5667, "lng": 6.4129, "population": 191, "nom": "Puy-Saint-Eusèbe"}, "84143": {"lat": 43.9866, "lng": 5.1684, "population": 1082, "nom": "Venasque"}, "84123": {"lat": 44.0774, "lng": 5.3892, "population": 1343, "nom": "Sault"}, "04033": {"lat": 44.4447, "lng": 6.319, "population": 786, "nom": "Ubaye-Serre-Ponçon"}, "83056": {"lat": 43.5642, "lng": 6.4915, "population": 2762, "nom": "Figanières"}, "84121": {"lat": 43.7588, "lng": 5.4917, "population": 290, "nom": "Sannes"}, "05070": {"lat": 44.3372, "lng": 5.8197, "population": 3549, "nom": "Laragne-Montéglin"}, "04141": {"lat": 44.039, "lng": 5.7249, "population": 358, "nom": "Ongles"}, "04206": {"lat": 44.0087, "lng": 5.8505, "population": 419, "nom": "Sigonce"}, "05114": {"lat": 44.6163, "lng": 6.3622, "population": 242, "nom": "Réallon"}, "13066": {"lat": 43.86, "lng": 4.9018, "population": 6080, "nom": "Noves"}, "05012": {"lat": 44.5051, "lng": 6.504, "population": 648, "nom": "Baratier"}, "83153": {"lat": 43.0762, "lng": 5.9272, "population": 6000, "nom": "Saint-Mandrier-sur-Mer"}, "06034": {"lat": 43.79, "lng": 7.2298, "population": 1666, "nom": "Castagniers"}, "06018": {"lat": 43.6273, "lng": 7.0821, "population": 10511, "nom": "Biot"}, "84052": {"lat": 43.7581, "lng": 5.6022, "population": 1234, "nom": "Grambois"}, "83145": {"lat": 43.5924, "lng": 5.9435, "population": 1177, "nom": "Varages"}, "84082": {"lat": 44.0686, "lng": 5.1918, "population": 1884, "nom": "Mormoiron"}, "13041": {"lat": 43.4585, "lng": 5.4857, "population": 21597, "nom": "Gardanne"}, "05144": {"lat": 44.7773, "lng": 6.0649, "population": 113, "nom": "Saint-Jacques-en-Valgodemard"}, "84087": {"lat": 44.1264, "lng": 4.8031, "population": 29706, "nom": "Orange"}, "04036": {"lat": 44.1725, "lng": 6.3036, "population": 965, "nom": "Le Brusquet"}, "04244": {"lat": 44.1232, "lng": 6.0333, "population": 1633, "nom": "Volonne"}, "84106": {"lat": 44.2344, "lng": 4.8949, "population": 2656, "nom": "Sainte-Cécile-les-Vignes"}, "83054": {"lat": 43.164, "lng": 6.0414, "population": 10014, "nom": "La Farlède"}, "06122": {"lat": 43.7619, "lng": 7.1477, "population": 4453, "nom": "Saint-Jeannet"}, "04007": {"lat": 43.9442, "lng": 6.5531, "population": 72, "nom": "Angles"}, "84024": {"lat": 43.7882, "lng": 5.4891, "population": 946, "nom": "Cabrières-d'Aigues"}, "04097": {"lat": 44.197, "lng": 6.3183, "population": 376, "nom": "La Javie"}, "83133": {"lat": 43.5732, "lng": 6.8538, "population": 1750, "nom": "Tanneron"}, "84004": {"lat": 44.0962, "lng": 5.0331, "population": 5981, "nom": "Aubignan"}, "06127": {"lat": 44.0944, "lng": 7.307, "population": 1337, "nom": "Saint-Martin-Vésubie"}, "84150": {"lat": 44.3288, "lng": 4.9477, "population": 1857, "nom": "Visan"}, "13096": {"lat": 43.4958, "lng": 4.4374, "population": 2433, "nom": "Saintes-Maries-de-la-Mer"}, "05007": {"lat": 44.7623, "lng": 6.7181, "population": 340, "nom": "Arvieux"}, "05064": {"lat": 44.8069, "lng": 6.244, "population": 120, "nom": "La Chapelle-en-Valgaudémar"}, "13036": {"lat": 43.8414, "lng": 4.8423, "population": 4298, "nom": "Eyragues"}, "84132": {"lat": 43.9236, "lng": 4.9939, "population": 8882, "nom": "Le Thor"}, "04026": {"lat": 44.4074, "lng": 6.1947, "population": 159, "nom": "Bellaffaire"}, "04190": {"lat": 43.8693, "lng": 5.7429, "population": 120, "nom": "Saint-Martin-les-Eaux"}, "84054": {"lat": 43.9191, "lng": 5.0588, "population": 20244, "nom": "L'Isle-sur-la-Sorgue"}, "13084": {"lat": 43.7166, "lng": 5.3165, "population": 5459, "nom": "La Roque-d'Anthéron"}, "04018": {"lat": 44.0244, "lng": 5.6496, "population": 1072, "nom": "Banon"}, "13074": {"lat": 43.6262, "lng": 5.5763, "population": 5409, "nom": "Peyrolles-en-Provence"}, "05032": {"lat": 44.7416, "lng": 6.2741, "population": 144, "nom": "Champoléon"}, "84133": {"lat": 43.7128, "lng": 5.5682, "population": 4405, "nom": "La Tour-d'Aigues"}, "04084": {"lat": 43.9487, "lng": 6.2004, "population": 469, "nom": "Estoublon"}, "05022": {"lat": 44.4163, "lng": 6.2184, "population": 229, "nom": "Bréziers"}, "13070": {"lat": 43.2778, "lng": 5.5185, "population": 6605, "nom": "La Penne-sur-Huveaune"}, "13113": {"lat": 43.5951, "lng": 5.4991, "population": 8418, "nom": "Venelles"}, "84036": {"lat": 43.9307, "lng": 4.9435, "population": 3565, "nom": "Châteauneuf-de-Gadagne"}, "84060": {"lat": 43.9842, "lng": 5.4769, "population": 30, "nom": "Lagarde-d'Apt"}, "84112": {"lat": 43.8557, "lng": 5.5141, "population": 689, "nom": "Saint-Martin-de-Castillon"}, "13014": {"lat": 43.4976, "lng": 5.1596, "population": 13832, "nom": "Berre-l'Étang"}, "06140": {"lat": 43.6257, "lng": 6.8538, "population": 3212, "nom": "Le Tignet"}, "83142": {"lat": 43.7365, "lng": 6.438, "population": 232, "nom": "Trigance"}, "84090": {"lat": 43.7962, "lng": 5.5617, "population": 664, "nom": "Peypin-d'Aigues"}, "04005": {"lat": 43.9769, "lng": 6.5929, "population": 126, "nom": "Allons"}, "04172": {"lat": 43.8196, "lng": 6.1526, "population": 725, "nom": "Roumoules"}, "04042": {"lat": 44.0442, "lng": 6.7436, "population": 143, "nom": "Castellet-lès-Sausses"}, "13050": {"lat": 43.6636, "lng": 5.2493, "population": 10024, "nom": "Lambesc"}, "83088": {"lat": 43.2912, "lng": 6.0267, "population": 2976, "nom": "Néoules"}, "06027": {"lat": 43.6712, "lng": 7.1502, "population": 53354, "nom": "Cagnes-sur-Mer"}, "13027": {"lat": 43.8829, "lng": 4.8344, "population": 16545, "nom": "Châteaurenard"}, "13057": {"lat": 43.7887, "lng": 4.7637, "population": 564, "nom": "Mas-Blanc-des-Alpilles"}, "05053": {"lat": 44.3602, "lng": 5.7865, "population": 539, "nom": "Garde-Colombe"}, "84044": {"lat": 44.2238, "lng": 5.1364, "population": 1177, "nom": "Entrechaux"}, "13006": {"lat": 43.6983, "lng": 4.942, "population": 1533, "nom": "Aureille"}, "13051": {"lat": 43.5728, "lng": 5.1725, "population": 9915, "nom": "Lançon-Provence"}, "05027": {"lat": 44.8586, "lng": 6.7746, "population": 205, "nom": "Cervières"}, "04095": {"lat": 44.1068, "lng": 5.7078, "population": 99, "nom": "L'Hospitalet"}, "83085": {"lat": 43.5091, "lng": 6.5506, "population": 3071, "nom": "La Motte"}, "13012": {"lat": 43.5197, "lng": 5.5481, "population": 585, "nom": "Beaurecueil"}, "04139": {"lat": 44.1644, "lng": 5.8078, "population": 525, "nom": "Noyers-sur-Jabron"}, "13097": {"lat": 43.6074, "lng": 4.8688, "population": 14145, "nom": "Saint-Martin-de-Crau"}, "04063": {"lat": 43.7593, "lng": 5.7481, "population": 1317, "nom": "Corbières-en-Provence"}, "05073": {"lat": 44.3488, "lng": 5.851, "population": 345, "nom": "Lazer"}, "84095": {"lat": 43.7519, "lng": 5.3384, "population": 865, "nom": "Puyvert"}, "83151": {"lat": 43.432, "lng": 6.1495, "population": 936, "nom": "Vins-sur-Caramy"}, "05174": {"lat": 44.9399, "lng": 6.657, "population": 593, "nom": "Val-des-Prés"}, "06143": {"lat": 43.9433, "lng": 7.0091, "population": 748, "nom": "Touët-sur-Var"}, "83091": {"lat": 43.2351, "lng": 6.1798, "population": 6084, "nom": "Pierrefeu-du-Var"}, "04122": {"lat": 44.0608, "lng": 6.0826, "population": 522, "nom": "Mirabeau"}, "04219": {"lat": 44.083, "lng": 6.6152, "population": 247, "nom": "Thorame-Haute"}, "84027": {"lat": 44.1155, "lng": 4.746, "population": 2493, "nom": "Caderousse"}, "84118": {"lat": 43.961, "lng": 5.3566, "population": 3004, "nom": "Saint-Saturnin-lès-Apt"}, "05166": {"lat": 44.4224, "lng": 5.7142, "population": 1298, "nom": "Serres"}, "83055": {"lat": 43.6118, "lng": 6.6762, "population": 6157, "nom": "Fayence"}, "84078": {"lat": 44.2407, "lng": 4.7326, "population": 3833, "nom": "Mondragon"}, "04134": {"lat": 44.3412, "lng": 6.0406, "population": 546, "nom": "La Motte-du-Caire"}, "13077": {"lat": 43.4207, "lng": 4.9993, "population": 15802, "nom": "Port-de-Bouc"}, "04096": {"lat": 44.3795, "lng": 6.7745, "population": 1146, "nom": "Jausiers"}, "05071": {"lat": 44.4372, "lng": 5.9721, "population": 391, "nom": "Lardier-et-Valença"}, "84093": {"lat": 43.7699, "lng": 5.2572, "population": 894, "nom": "Puget"}, "13026": {"lat": 43.3904, "lng": 5.1464, "population": 18455, "nom": "Châteauneuf-les-Martigues"}, "83084": {"lat": 43.6574, "lng": 6.0652, "population": 596, "nom": "Montmeyan"}, "84028": {"lat": 44.2277, "lng": 4.9339, "population": 1129, "nom": "Cairanne"}, "83082": {"lat": 43.6336, "lng": 6.4774, "population": 1719, "nom": "Montferrat"}, "13119": {"lat": 43.259, "lng": 5.5655, "population": 6873, "nom": "Carnoux-en-Provence"}, "83042": {"lat": 43.2406, "lng": 6.5319, "population": 12301, "nom": "Cogolin"}, "84145": {"lat": 43.9573, "lng": 5.434, "population": 783, "nom": "Villars"}, "04058": {"lat": 44.3728, "lng": 5.9662, "population": 298, "nom": "Claret"}, "83081": {"lat": 43.5936, "lng": 6.7993, "population": 7183, "nom": "Montauroux"}, "84085": {"lat": 43.965, "lng": 5.2432, "population": 376, "nom": "Murs"}, "04166": {"lat": 43.8358, "lng": 6.0849, "population": 1610, "nom": "Riez"}, "04240": {"lat": 44.1952, "lng": 6.5713, "population": 257, "nom": "Villars-Colmars"}, "04123": {"lat": 44.2629, "lng": 5.8676, "population": 1112, "nom": "Mison"}, "13058": {"lat": 43.7158, "lng": 4.838, "population": 2347, "nom": "Maussane-les-Alpilles"}, "83073": {"lat": 43.3855, "lng": 6.3107, "population": 11310, "nom": "Le Luc"}, "04027": {"lat": 44.1753, "lng": 5.8772, "population": 260, "nom": "Bevons"}, "06058": {"lat": 43.7236, "lng": 6.7758, "population": 622, "nom": "Escragnolles"}, "04057": {"lat": 44.3301, "lng": 6.0784, "population": 183, "nom": "Clamensane"}, "13095": {"lat": 43.5567, "lng": 5.5202, "population": 1273, "nom": "Saint-Marc-Jaumegarde"}, "13115": {"lat": 43.6841, "lng": 5.1892, "population": 2166, "nom": "Vernègues"}, "84020": {"lat": 43.8327, "lng": 5.3172, "population": 1198, "nom": "Bonnieux"}, "04041": {"lat": 43.9218, "lng": 5.9798, "population": 296, "nom": "Le Castellet"}, "05001": {"lat": 44.7717, "lng": 6.9717, "population": 374, "nom": "Abriès-Ristolas"}, "04022": {"lat": 43.9467, "lng": 6.386, "population": 413, "nom": "Barrême"}, "13048": {"lat": 43.6289, "lng": 5.6605, "population": 4547, "nom": "Jouques"}, "84074": {"lat": 43.7648, "lng": 5.1884, "population": 2283, "nom": "Mérindol"}, "04220": {"lat": 44.3917, "lng": 6.5584, "population": 361, "nom": "Les Thuiles"}, "04025": {"lat": 44.1454, "lng": 6.6051, "population": 384, "nom": "Beauvezer"}, "13112": {"lat": 43.5215, "lng": 5.246, "population": 8941, "nom": "Velaux"}, "04054": {"lat": 44.0264, "lng": 6.2239, "population": 76, "nom": "Châteauredon"}, "04154": {"lat": 44.4984, "lng": 6.3704, "population": 96, "nom": "Pontis"}, "83127": {"lat": 43.2759, "lng": 5.8498, "population": 3126, "nom": "Signes"}, "04194": {"lat": 43.9114, "lng": 6.922, "population": 99, "nom": "Saint-Pierre"}, "04140": {"lat": 44.1513, "lng": 5.5933, "population": 135, "nom": "Les Omergues"}, "04066": {"lat": 44.4132, "lng": 6.0189, "population": 575, "nom": "Curbans"}, "05167": {"lat": 44.4601, "lng": 5.6808, "population": 82, "nom": "Sigottier"}, "06076": {"lat": 44.0001, "lng": 7.0361, "population": 50, "nom": "Lieuche"}, "04113": {"lat": 44.1287, "lng": 6.2818, "population": 466, "nom": "Marcoux"}, "04242": {"lat": 43.8848, "lng": 5.8509, "population": 4360, "nom": "Villeneuve"}, "13053": {"lat": 43.728, "lng": 5.1849, "population": 6166, "nom": "Mallemort"}, "13065": {"lat": 43.7053, "lng": 4.8781, "population": 3527, "nom": "Mouriès"}, "83111": {"lat": 43.3337, "lng": 6.1227, "population": 2165, "nom": "Sainte-Anastasie-sur-Issole"}, "05183": {"lat": 44.8378, "lng": 6.6483, "population": 1433, "nom": "Villar-Saint-Pancrace"}, "83131": {"lat": 43.2097, "lng": 5.9836, "population": 6269, "nom": "Solliès-Toucas"}, "06089": {"lat": 43.6574, "lng": 7.0094, "population": 2527, "nom": "Opio"}, "04183": {"lat": 43.9122, "lng": 6.5472, "population": 179, "nom": "Saint-Julien-du-Verdon"}, "83014": {"lat": 43.714, "lng": 6.1351, "population": 235, "nom": "Baudinard-sur-Verdon"}, "83146": {"lat": 43.6529, "lng": 5.9374, "population": 1668, "nom": "La Verdière"}, "05060": {"lat": 44.5379, "lng": 5.8751, "population": 169, "nom": "Furmeyer"}, "13017": {"lat": 43.8721, "lng": 4.6962, "population": 1543, "nom": "Boulbon"}, "04170": {"lat": 43.9097, "lng": 6.875, "population": 74, "nom": "La Rochette"}, "04039": {"lat": 43.8485, "lng": 6.4871, "population": 1472, "nom": "Castellane"}, "04079": {"lat": 44.0777, "lng": 6.0363, "population": 1427, "nom": "L'Escale"}, "04090": {"lat": 44.0183, "lng": 6.6627, "population": 196, "nom": "Le Fugeret"}, "04116": {"lat": 43.9956, "lng": 5.9679, "population": 4099, "nom": "Les Mées"}, "04120": {"lat": 44.43, "lng": 6.8559, "population": 87, "nom": "Val d'Oronaye"}, "04124": {"lat": 43.7631, "lng": 6.0944, "population": 401, "nom": "Montagnac-Montpezat"}, "04144": {"lat": 43.801, "lng": 6.323, "population": 347, "nom": "La Palud-sur-Verdon"}, "04150": {"lat": 44.4546, "lng": 6.1321, "population": 201, "nom": "Piégut"}, "04155": {"lat": 44.2135, "lng": 6.4598, "population": 172, "nom": "Prads-Haute-Bléone"}, "04160": {"lat": 43.8884, "lng": 5.6565, "population": 1730, "nom": "Reillanne"}, "04178": {"lat": 44.0648, "lng": 5.7798, "population": 1286, "nom": "Saint-Pierre"}, "04195": {"lat": 44.416, "lng": 6.6163, "population": 631, "nom": "Saint-Pons"}, "04202": {"lat": 44.013, "lng": 6.7861, "population": 131, "nom": "Sausses"}, "04241": {"lat": 43.8627, "lng": 5.7065, "population": 192, "nom": "Villemus"}, "05010": {"lat": 44.5565, "lng": 5.7695, "population": 828, "nom": "Aspres-sur-Buëch"}, "05019": {"lat": 44.5477, "lng": 5.6518, "population": 153, "nom": "La Beaume"}, "05024": {"lat": 44.4627, "lng": 5.5309, "population": 204, "nom": "Valdoule"}, "05029": {"lat": 44.6485, "lng": 6.1663, "population": 964, "nom": "Chabottes"}, "05031": {"lat": 44.7247, "lng": 6.5236, "population": 181, "nom": "Champcella"}, "05057": {"lat": 44.45, "lng": 5.9992, "population": 276, "nom": "Fouillouse"}, "05074": {"lat": 44.4833, "lng": 6.0712, "population": 196, "nom": "Lettret"}, "05087": {"lat": 44.5774, "lng": 5.8707, "population": 532, "nom": "Montmaur"}, "05097": {"lat": 44.316, "lng": 5.7071, "population": 316, "nom": "Orpierre"}, "05098": {"lat": 44.4883, "lng": 6.5774, "population": 510, "nom": "Les Orres"}, "05118": {"lat": 44.2516, "lng": 5.8338, "population": 1354, "nom": "Réallon"}, "05124": {"lat": 44.5945, "lng": 6.1473, "population": 471, "nom": "La Rochette"}, "05161": {"lat": 44.9571, "lng": 6.5664, "population": 892, "nom": "La Salle-les-Alpes"}, "05169": {"lat": 44.3615, "lng": 5.57, "population": 50, "nom": "Sorbiers"}, "06005": {"lat": 43.9171, "lng": 7.0159, "population": 174, "nom": "Ascros"}, "06026": {"lat": 43.6602, "lng": 6.8782, "population": 1450, "nom": "Cabris"}, "06064": {"lat": 43.769, "lng": 7.1675, "population": 4358, "nom": "Gattières"}, "06079": {"lat": 43.5334, "lng": 6.918, "population": 21640, "nom": "Mandelieu-la-Napoule"}, "06114": {"lat": 43.7455, "lng": 7.2875, "population": 5896, "nom": "Saint-André-de-la-Roche"}, "06130": {"lat": 43.6994, "lng": 6.8516, "population": 3658, "nom": "Saint-Vallier-de-Thiey"}, "06141": {"lat": 43.8857, "lng": 7.1094, "population": 355, "nom": "Toudon"}, "06150": {"lat": 43.7462, "lng": 7.3973, "population": 3045, "nom": "La Turbie"}, "13002": {"lat": 43.3522, "lng": 5.5103, "population": 21443, "nom": "Allauch"}, "13013": {"lat": 43.4231, "lng": 5.5846, "population": 2009, "nom": "Belcodène"}, "13030": {"lat": 43.2822, "lng": 5.7099, "population": 6236, "nom": "Cuges-les-Pins"}, "13056": {"lat": 43.3839, "lng": 5.0451, "population": 48298, "nom": "Martigues"}, "13064": {"lat": 43.8034, "lng": 4.9466, "population": 2647, "nom": "Mollégès"}, "13089": {"lat": 43.8327, "lng": 4.9498, "population": 3353, "nom": "Saint-Andiol"}, "13114": {"lat": 43.5446, "lng": 5.3045, "population": 5839, "nom": "Ventabren"}, "83011": {"lat": 43.6344, "lng": 6.5439, "population": 1433, "nom": "Bargemon"}, "83018": {"lat": 43.339, "lng": 6.1839, "population": 3125, "nom": "Besse-sur-Issole"}, "83026": {"lat": 43.4275, "lng": 6.2303, "population": 2020, "nom": "Cabasse"}, "83032": {"lat": 43.4738, "lng": 6.1752, "population": 3540, "nom": "Carcès"}, "83033": {"lat": 43.2921, "lng": 6.1978, "population": 4388, "nom": "Carnoules"}, "83035": {"lat": 43.2148, "lng": 5.7561, "population": 6040, "nom": "Le Castellet"}, "83038": {"lat": 43.6259, "lng": 6.442, "population": 476, "nom": "Châteaudouble"}, "83046": {"lat": 43.5246, "lng": 6.1436, "population": 2197, "nom": "Cotignac"}, "83051": {"lat": 43.5085, "lng": 6.2324, "population": 1118, "nom": "Entrecasteaux"}, "83057": {"lat": 43.372, "lng": 6.2169, "population": 3706, "nom": "Flassans-sur-Issole"}, "83065": {"lat": 43.2385, "lng": 6.5876, "population": 2687, "nom": "Gassin"}, "83066": {"lat": 43.6566, "lng": 5.8393, "population": 2075, "nom": "Ginasservis"}, "83069": {"lat": 43.1139, "lng": 6.2357, "population": 55858, "nom": "Hyères"}, "83078": {"lat": 43.6487, "lng": 6.1666, "population": 306, "nom": "Moissac-Bellevue"}, "83096": {"lat": 43.4626, "lng": 5.7894, "population": 1552, "nom": "Pourcieux"}, "83097": {"lat": 43.487, "lng": 5.7432, "population": 5642, "nom": "Pourrières"}, "83102": {"lat": 43.663, "lng": 6.122, "population": 2380, "nom": "Régusse"}, "83103": {"lat": 43.1878, "lng": 5.9453, "population": 4074, "nom": "Le Revest-les-Eaux"}, "83104": {"lat": 43.6026, "lng": 5.734, "population": 4223, "nom": "Rians"}, "83106": {"lat": 43.3062, "lng": 6.0869, "population": 5660, "nom": "Rocbaron"}, "83108": {"lat": 43.3384, "lng": 5.9787, "population": 2817, "nom": "La Roquebrussanne"}, "83128": {"lat": 43.565, "lng": 6.1549, "population": 787, "nom": "Sillans-la-Cascade"}, "83129": {"lat": 43.0843, "lng": 5.8079, "population": 37109, "nom": "Six-Fours-les-Plages"}, "83134": {"lat": 43.4657, "lng": 6.4283, "population": 1945, "nom": "Taradeau"}, "83140": {"lat": 43.4108, "lng": 5.9281, "population": 5207, "nom": "Tourves"}, "83143": {"lat": 43.4468, "lng": 6.0569, "population": 4335, "nom": "Le Val"}, "83149": {"lat": 43.5649, "lng": 6.2855, "population": 1514, "nom": "Villecroze"}, "84005": {"lat": 44.1357, "lng": 5.3906, "population": 190, "nom": "Aurel"}, "84008": {"lat": 44.1591, "lng": 5.1046, "population": 662, "nom": "Le Barroux"}, "84025": {"lat": 43.9034, "lng": 5.1494, "population": 1686, "nom": "Cabrières-d'Avignon"}, "84051": {"lat": 43.8675, "lng": 5.2448, "population": 1055, "nom": "Goult"}, "84056": {"lat": 44.1324, "lng": 4.9144, "population": 5201, "nom": "Jonquières"}, "84057": {"lat": 43.9223, "lng": 5.2522, "population": 348, "nom": "Joucas"}, "84062": {"lat": 43.9044, "lng": 5.1181, "population": 1742, "nom": "Lagnes"}, "84064": {"lat": 44.3073, "lng": 4.6821, "population": 3853, "nom": "Lapalud"}, "84066": {"lat": 43.9782, "lng": 5.3122, "population": 286, "nom": "Lioux"}, "84073": {"lat": 43.8271, "lng": 5.2172, "population": 962, "nom": "Ménerbes"}, "84091": {"lat": 44.1784, "lng": 4.7587, "population": 5718, "nom": "Piolenc"}, "84100": {"lat": 44.1458, "lng": 5.0683, "population": 50, "nom": "La Roque-Alric"}, "84102": {"lat": 43.8959, "lng": 5.2906, "population": 1333, "nom": "Roussillon"}, "84104": {"lat": 44.1927, "lng": 4.9962, "population": 1436, "nom": "Sablet"}, "84105": {"lat": 43.868, "lng": 5.4405, "population": 912, "nom": "Saignon"}, "84135": {"lat": 44.2096, "lng": 4.7983, "population": 1699, "nom": "Uchaux"}, "84139": {"lat": 43.9244, "lng": 5.1307, "population": 585, "nom": "Fontaine-de-Vaucluse"}, "84149": {"lat": 44.1764, "lng": 4.9511, "population": 1762, "nom": "Violès"}, "04008": {"lat": 43.9667, "lng": 6.6667, "population": 1100, "nom": "Annot"}, "04023": {"lat": 44.1083, "lng": 6.3917, "population": 400, "nom": "Bayons"}, "04053": {"lat": 44.0167, "lng": 5.9833, "population": 600, "nom": "Châteauneuf-Val-Saint-Donat"}, "04067": {"lat": 44.1167, "lng": 6.05, "population": 100, "nom": "Curel"}, "04076": {"lat": 43.95, "lng": 6.8, "population": 857, "nom": "Entrevaux"}, "04081": {"lat": 44.1667, "lng": 6.0167, "population": 400, "nom": "Esparron-de-Verdon"}, "04091": {"lat": 43.9533, "lng": 5.975, "population": 147, "nom": "Ganagobie"}, "04109": {"lat": 43.8167, "lng": 5.8333, "population": 700, "nom": "Mallefougasse-Augès"}, "04121": {"lat": 43.9833, "lng": 6.2333, "population": 837, "nom": "Mézel"}, "04162": {"lat": 43.85, "lng": 5.5333, "population": 900, "nom": "Revest-des-Brousses"}, "04188": {"lat": 43.875, "lng": 5.7917, "population": 3774, "nom": "Saint-Maime"}, "04224": {"lat": 43.9833, "lng": 5.6333, "population": 307, "nom": "Ubraye"}, "05058": {"lat": 44.5625, "lng": 6.0792, "population": 40000, "nom": "Freissinières"}, "05068": {"lat": 44.3167, "lng": 5.9833, "population": 600, "nom": "Jarjayes"}, "05164": {"lat": 44.8667, "lng": 6.3833, "population": 400, "nom": "Savines-le-Lac"}, "05168": {"lat": 44.3, "lng": 5.9333, "population": 300, "nom": "Sigoyer"}, "06030": {"lat": 43.5958, "lng": 7.02, "population": 42000, "nom": "Le Cannet"}, "06062": {"lat": 44.0833, "lng": 7.55, "population": 300, "nom": "Fontan"}, "06090": {"lat": 43.7, "lng": 7.2667, "population": 5000, "nom": "Pégomas"}, "06157": {"lat": 43.7228, "lng": 7.1122, "population": 19328, "nom": "Vence"}, "13010": {"lat": 43.8833, "lng": 4.75, "population": 4000, "nom": "Barbentane"}, "13029": {"lat": 43.4375, "lng": 4.9444, "population": 16584, "nom": "Cornillon-Confoux"}, "13039": {"lat": 43.53, "lng": 5.04, "population": 10000, "nom": "Fos-sur-Mer"}, "13044": {"lat": 43.5167, "lng": 5.2333, "population": 10000, "nom": "Grans"}, "13118": {"lat": 43.55, "lng": 5.2333, "population": 4000, "nom": "Coudoux"}, "13201": {"lat": 43.2965, "lng": 5.3698, "population": 870000, "nom": "Marseille"}, "13208": {"lat": 43.28, "lng": 5.38, "population": 870000, "nom": "Marseille"}, "83003": {"lat": 43.595, "lng": 6.3706, "population": 903, "nom": "Ampus"}, "83008": {"lat": 43.5617, "lng": 6.69, "population": 2836, "nom": "Bagnols-en-Forêt"}, "83017": {"lat": 43.2528, "lng": 5.9981, "population": 3017, "nom": "Belgentier"}, "83030": {"lat": 43.3375, "lng": 6.5742, "population": 4500, "nom": "Camps-la-Source"}, "83034": {"lat": 43.3583, "lng": 6.5056, "population": 1500, "nom": "Carqueiranne"}, "83058": {"lat": 43.55, "lng": 6.75, "population": 55000, "nom": "Flayosc"}, "83101": {"lat": 43.2167, "lng": 6.6083, "population": 2100, "nom": "Ramatuelle"}, "83114": {"lat": 43.3083, "lng": 6.6333, "population": 14000, "nom": "Saint-Martin-de-Pallières"}, "83120": {"lat": 43.6417, "lng": 6.2167, "population": 3500, "nom": "Saint-Zacharie"}, "83121": {"lat": 43.56, "lng": 6.23, "population": 4000, "nom": "Salernes"}, "83122": {"lat": 43.2, "lng": 5.6833, "population": 3800, "nom": "Les Salles-sur-Verdon"}, "83154": {"lat": 43.1583, "lng": 6.4667, "population": 1300, "nom": "Saint-Antonin-du-Var"}, "84016": {"lat": 44.05, "lng": 4.8833, "population": 5200, "nom": "Bédarrides"}, "84039": {"lat": 44.0556, "lng": 5.1278, "population": 1200, "nom": "Courthézon"}, "84055": {"lat": 43.9281, "lng": 5.1806, "population": 7500, "nom": "Jonquerettes"}, "84068": {"lat": 43.7622, "lng": 5.3583, "population": 1090, "nom": "Lourmarin"}, "84086": {"lat": 43.8333, "lng": 5.2833, "population": 1200, "nom": "Oppède"}, "84094": {"lat": 44.2572, "lng": 5.0922, "population": 597, "nom": "Puyméras"}, "84119": {"lat": 43.9408, "lng": 4.9353, "population": 5029, "nom": "Saint-Saturnin-lès-Avignon"}, "84144": {"lat": 43.8667, "lng": 5.5667, "population": 300, "nom": "Viens"}, "04046": {"lat": 44.0833, "lng": 6.5167, "population": 200, "nom": "Le Chaffaut-Saint-Jurson"}, "04094": {"lat": 43.9667, "lng": 6.75, "population": 120, "nom": "Gréoux-les-Bains"}, "04216": {"lat": 44.3333, "lng": 6.4167, "population": 300, "nom": "Thèze"}, "04229": {"lat": 44.45, "lng": 6.6167, "population": 400, "nom": "Valbelle"}, "05093": {"lat": 45.0167, "lng": 6.5333, "population": 900, "nom": "Névache"}, "05151": {"lat": 44.8667, "lng": 6.3833, "population": 400, "nom": "Saint-Martin-de-Queyrières"}, "06125": {"lat": 44.05, "lng": 6.9, "population": 200, "nom": "Saint-Martin-d'Entraunes"}, "13071": {"lat": 43.41, "lng": 5.31, "population": 20000, "nom": "Les Pennes-Mirabeau"}, "83007": {"lat": 43.5833, "lng": 6.7167, "population": 2500, "nom": "Aups"}, "83053": {"lat": 43.1833, "lng": 5.85, "population": 2000, "nom": "Évenos"}, "83100": {"lat": 43.2833, "lng": 6.1333, "population": 3500, "nom": "Puget-Ville"}, "83107": {"lat": 43.3417, "lng": 6.0667, "population": 3000, "nom": "Roquebrune-sur-Argens"}, "84058": {"lat": 43.8667, "lng": 5.3333, "population": 700, "nom": "Lacoste"}, "84077": {"lat": 44.05, "lng": 5.0167, "population": 3000, "nom": "Modène"}, "84136": {"lat": 44.1667, "lng": 4.8, "population": 1100, "nom": "Vacqueyras"}, "04068": {"lat": 43.8947, "lng": 5.7765, "population": 838, "nom": "Dauphin"}, "04129": {"lat": 43.8436, "lng": 5.6584, "population": 54, "nom": "Montjustin"}, "04174": {"lat": 43.96, "lng": 6.7282, "population": 166, "nom": "Saint-Benoît"}, "05037": {"lat": 44.4838, "lng": 6.0527, "population": 545, "nom": "Châteauvieux"}, "05075": {"lat": 44.5317, "lng": 5.9553, "population": 500, "nom": "Manteyer"}, "83043": {"lat": 43.2446, "lng": 6.3454, "population": 1870, "nom": "Collobrières"}, "83116": {"lat": 43.4488, "lng": 5.8603, "population": 17896, "nom": "Saint-Maximin-la-Sainte-Baume"}, "84070": {"lat": 44.0171, "lng": 5.1646, "population": 1969, "nom": "Malemort-du-Comtat"}, "84072": {"lat": 44.0528, "lng": 5.1333, "population": 6285, "nom": "Mazan"}, "83028": {"lat": 43.5687, "lng": 6.5735, "population": 2124, "nom": "Callas"}, "83071": {"lat": 43.1641, "lng": 6.2417, "population": 10584, "nom": "La Londe-les-Maures"}, "84098": {"lat": 44.2539, "lng": 5.0125, "population": 626, "nom": "Roaix"}, "84001": {"lat": 44.0055, "lng": 4.9585, "population": 2960, "nom": "Althen-des-Paluds"}, "13078": {"lat": 43.4066, "lng": 4.826, "population": 8573, "nom": "Port-Saint-Louis-du-Rhône"}, "83031": {"lat": 43.3695, "lng": 6.3703, "population": 5140, "nom": "Le Cannet-des-Maures"}, "13093": {"lat": 43.6926, "lng": 5.3891, "population": 357, "nom": "Saint-Estève-Janson"}}